[
  {
    "title": "Antrim",
    "address": "Farranshane House\n1 Ballygore Road\nAntrim\nBT41 2RN",
    "phone": "028 9442 8176",
    "hours": "Monday to Thursday, 10am to 12pm and 2pm to 4pm\nFriday, 9:30am to 12:30pm and 1:30pm to 4.00pm",
    "lat": 54.71857499999999,
    "lng": -6.188037599999999,
    "id": "73abedb4-f822-4f5f-b7a9-6aa1f627f41a"
  },
  {
    "title": "Ards",
    "address": "75 West Street\nNewtownards\nBT23 4EN",
    "phone": "028 9181 9257",
    "hours": "Monday to Friday, 10:00am to 3:30pm",
    "lat": 54.5952592,
    "lng": -5.7019008,
    "id": "8862652c-a7e0-4aba-8846-91f836ebbffe"
  },
  {
    "title": "Armagh",
    "address": "9 McCrums Court\nArmagh\nBT61 7RS",
    "phone": "028 3752 4041",
    "hours": "Monday to Friday, 9:30am to 3:30pm",
    "lat": 54.3580091,
    "lng": -6.641012799999999,
    "id": "f0946066-3417-4db8-8b8b-c43d7a66b89f"
  },
  {
    "title": "Ballymena",
    "address": "4 Wellington Court\nBallymena\nBT43 6EQ",
    "phone": "028 2564 4398",
    "hours": "Monday, Tuesday, Friday, 10am to 4pm\nWednesday, Thursday, 10am to 8pm",
    "lat": 54.8657556,
    "lng": -6.2742356,
    "id": "2d320a0c-89f0-44d7-9cf9-6f29e4f97dd8"
  },
  {
    "title": "Banbridge",
    "address": "77 Bridge Street\nBanbridge\nBT32 3JL",
    "phone": "028 4062 2201",
    "hours": "Monday to Friday, 10am to 2pm",
    "lat": 54.3488771,
    "lng": -6.2699194,
    "id": "87aaf9ab-7619-4ebb-81e8-ad5abef8785e"
  },
  {
    "title": "Bangor",
    "address": "1a Springfield Avenue\nBangor\nBT20 5BY",
    "phone": "0300 123 3233",
    "hours": "Monday to Friday, 10am to 3:30pm",
    "lat": 54.6620252,
    "lng": -5.663684099999999,
    "id": "db7c39db-d64c-4561-a2a4-e4556690a64c"
  },
  {
    "title": "Belfast",
    "address": "Merrion Business Centre\n58 Howard St\nBelfast\nBT1 6PJ",
    "phone": "0300 1 233 233",
    "hours": "Monday to Friday, 9am to 12:30pm and 1pm to 4:30pm",
    "lat": 54.5957306,
    "lng": -5.9341485,
    "id": "1de9b76c-c349-4e2a-a3a7-bb0f59b0807e"
  },
  {
    "title": "Carrickfergus",
    "address": "65 North Street\nCarrickfergus\nBT38 7AE",
    "phone": "028 9600 1333",
    "hours": "Monday to Friday, 10am to 2pm",
    "lat": 54.7165468,
    "lng": -5.8082569,
    "id": "4d220dda-00f3-40cd-85a1-de97d76788c3"
  },
  {
    "title": "Coleraine",
    "address": "24 Lodge Road\nColeraine\nBT52 1NB",
    "phone": "028 7034 4817",
    "hours": "Monday to Friday, 9:30am to 1pm and 2pm to 4pm",
    "lat": 55.1315202,
    "lng": -6.6656869,
    "id": "ae357a58-ce26-45ec-9339-d173120ee167"
  },
  {
    "title": "Cookstown",
    "address": "The Enterprise Centre\nDerryloran Industrial Estate, Sandholes\nCookstown\nBT80 9LU",
    "phone": "028 8676 6126",
    "hours": "Monday to Friday, 10am to 3pm",
    "lat": 54.6296429,
    "lng": -6.7625958,
    "id": "9de3a232-35bb-483b-9d8a-ce28004da478"
  },
  {
    "title": "Craigavon",
    "address": "The Town Hall\n6 Union Street\nCraigavon\nBT66 8DY",
    "phone": "0300 123 3233",
    "hours": "Monday to Friday, 9:30am to 5pm",
    "lat": 54.4609688,
    "lng": -6.3313305,
    "id": "5a9df3a1-06e5-4f25-974f-2dcf6080fe3d"
  },
  {
    "title": "Derry City Side",
    "address": "Embassy Court\n3 Strand Road\nDerry\nBT48 7BJ",
    "phone": "028 7136 2444",
    "hours": "Monday to Friday, 9am to 1pm and 2pm to 5pm",
    "lat": 54.99967789999999,
    "lng": -7.3219594,
    "id": "03ca70f3-f76a-4563-a243-571000f80ab4"
  },
  {
    "title": "Derry Water Side",
    "address": "Unit 1 Spencer House\n14-22 Spencer Road\nDerry\nBT47 6QA",
    "phone": "028 7134 2536",
    "hours": "Monday to Friday, 9am to 1pm and 2pm to 5pm",
    "lat": 54.9889222,
    "lng": -7.3146822,
    "id": "f8bb224a-242f-4857-8f0f-c43e4833e528"
  },
  {
    "title": "Downpatrick",
    "address": "Magh-Inis House\n8-10 Irish Street\nDownpatrick\nBT30 6BP",
    "phone": "028 4461 4110",
    "hours": "Monday to Thursday, 10am to 4pm\nFriday, 10am to 1pm",
    "lat": 54.3286751,
    "lng": -5.7153462,
    "id": "bc0cdad0-7e6c-4aa3-a423-416f56cb26dc"
  },
  {
    "title": "Dungannon",
    "address": "5-6 Feeney's Lane\nDungannon\nBT70 1TX",
    "phone": "028 8772 5299",
    "hours": "Monday to Friday, 10am to 3pm",
    "lat": 54.5049094,
    "lng": -6.770258999999999,
    "id": "4fbed63d-5cff-4366-bb3c-7e0011e01214"
  },
  {
    "title": "Fermanagh",
    "address": "Fermanagh House\nBroadmeadow Place\nFermanagh\nBT74 7HR",
    "phone": "028 6632 4334",
    "hours": "Monday to Thursday, 9:30am to 3.30pm\nFriday, 9:30am to 1pm",
    "lat": 54.3454797,
    "lng": -7.6416001,
    "id": "5a2c0f21-0e97-44ce-aca6-8f0594a828b8"
  },
  {
    "title": "Holywood",
    "address": "Queens Hall\nSullivan Place\nHolywood\nBT18 9JF",
    "phone": "0300 123 3233",
    "hours": "Monday to Friday, 9:30am to 3:30pm",
    "lat": 54.6411866,
    "lng": -5.837807799999999,
    "id": "35347b64-0059-4bf8-bdcb-7871ac72b5ab"
  },
  {
    "title": "Larne",
    "address": "Park Lodge\n49 Victoria Road\nLarne\nBT40 1RT",
    "phone": "028 9600 1333",
    "hours": "Monday to Friday, 10am to 4pm",
    "lat": 54.8534689,
    "lng": -5.8153467,
    "id": "b5c1e099-8038-4675-9e5b-74218945e9ac"
  },
  {
    "title": "Lisburn",
    "address": "Bridge Community Centre\n50 Railway Street\nLisburn\nBT28 1XP",
    "phone": "028 9266 2251",
    "hours": "Monday to Friday, 9:30am to 12pm and 1:30pm to 4pm",
    "lat": 54.513456,
    "lng": -6.0442709,
    "id": "37453886-59a0-467e-acae-2d7aec449c2b"
  },
  {
    "title": "Newry",
    "address": "Ballybot House\n28 Cornmarket\nNewry\nBT35 8BG",
    "phone": "028 3026 2934",
    "hours": "Monday to Friday, 9:30am to 1pm and 2pm to 5pm",
    "lat": 54.1731229,
    "lng": -6.343651899999999,
    "id": "4cb189d7-a788-4914-b57b-9d0aa2436ce8"
  },
  {
    "title": "Newtownabbey",
    "address": "Dunanney Centre\nRathmullan Drive\nNewtownabbey\nBT37 9DQ",
    "phone": "028 9085 2271",
    "hours": "Monday to Friday, 9am to 1pm and 1:30pm to 4pm",
    "lat": 54.664403,
    "lng": -5.9169166,
    "id": "26d6c706-3a40-4123-b17d-9f4d4274d7b3"
  },
  {
    "title": "Strabane",
    "address": "17 Dock Street\nStrabane\nBT82 8EE",
    "phone": "028 7138 2665",
    "hours": "Monday to Friday, 9am to 1pm and 2pm to 5pm",
    "lat": 54.8292993,
    "lng": -7.4647269,
    "id": "beafeb21-7cd6-4a88-a372-d632fc63f291"
  }
]
